{
  "success": true,
  "data": {
    "id": "arab-bank",
    "owner_id": "usr_004",
    "business_type_id": "bank",
    "business_type_name": "بنك",
    "category_name": "خدمات مالية",
    "explore_category": "cat_services",
    "name": "البنك العربي",
    "name_en": "Arab Bank",
    "slug": "arab-bank",
    "handle": "arab-bank",
    "store_type": "physical",
    "archetype": "follow_only",
    "description": "البنك العربي — أكبر مؤسسة مصرفية في الأردن والمنطقة العربية منذ عام ١٩٣٠. خدمات مصرفية شاملة للأفراد والشركات: حسابات جارية وتوفير، بطاقات ائتمان، قروض شخصية وعقارية، تحويلات دولية، خدمات إلكترونية عبر تطبيق عربي موبايل. أكثر من ٧٨ فرعاً و١٥٠ صراف آلي في جميع أنحاء الأردن.",
    "avatar_url": "https://images.unsplash.com/photo-1501167786227-4cba60f6d58f?auto=format&fit=crop&w=200&q=80",
    "cover_url": "https://images.unsplash.com/photo-1486406146926-c627a92ad1ab?auto=format&fit=crop&w=800&q=80",
    "phone": "+96265007000",
    "location": {
      "lat": 31.9539,
      "lng": 35.9106,
      "label": "المقر الرئيسي — شارع المأمون، الشميساني",
      "area": "الشميساني",
      "city": "عمّان"
    },
    "weekly_schedule": {
      "sunday": {"enabled": true, "open": "08:30", "close": "15:30"},
      "monday": {"enabled": true, "open": "08:30", "close": "15:30"},
      "tuesday": {"enabled": true, "open": "08:30", "close": "15:30"},
      "wednesday": {"enabled": true, "open": "08:30", "close": "15:30"},
      "thursday": {"enabled": true, "open": "08:30", "close": "15:30"},
      "friday": {"enabled": false},
      "saturday": {"enabled": true, "open": "08:30", "close": "13:00"}
    },
    "operating_hours": "أحد–خميس: ٨:٣٠ ص – ٣:٣٠ م | سبت: ٨:٣٠ ص – ١:٠٠ م",
    "is_verified": true,
    "is_open": true,
    "page_status": "active",
    "followers_count": 45000,
    "posts_count": 120,
    "views_count": 280000,
    "is_following": false,
    "trust_score": 98,
    "trust_metrics": [
      {"label": "فروع في الأردن", "value": "٧٨", "icon": "location_on"},
      {"label": "صراف آلي", "value": "١٥٠+", "icon": "atm"},
      {"label": "تأسس", "value": "١٩٣٠", "icon": "history"}
    ],
    "member_since": "2025",
    "contact_methods": ["chat", "phone"],
    "created_at": 1704000000,
    "engagement_level": "visibility",
    "data_synced": true,
    "working_hours": {
      "sunday": {"open": "08:30", "close": "15:30"},
      "monday": {"open": "08:30", "close": "15:30"},
      "tuesday": {"open": "08:30", "close": "15:30"},
      "wednesday": {"open": "08:30", "close": "15:30"},
      "thursday": {"open": "08:30", "close": "15:30"},
      "saturday": {"open": "08:30", "close": "13:00"}
    },
    "payment_methods": ["نقد", "شيكات", "تحويل بنكي", "كليك"],
    "external_links": [
      {"platform": "website", "label": "الموقع الرسمي", "url": "https://www.arabbank.jo"},
      {"platform": "app", "label": "عربي موبايل", "url": "https://play.google.com/store/apps/details?id=com.arabbank.mobilebanking"},
      {"platform": "atm", "label": "مواقع الصرافات", "url": "https://www.arabbank.jo/atm-locator"}
    ],
    "about_extended": "البنك العربي هو أكبر شبكة مصرفية أردنية وعربية، تأسس عام ١٩٣٠ في القدس. يقدم خدمات مصرفية شاملة تشمل:\n\n• حسابات جارية وتوفير بالدينار والدولار واليورو\n• بطاقات ائتمان فيزا وماستركارد\n• قروض شخصية وسيارات وعقارية\n• تحويلات دولية وخدمة ويسترن يونيون\n• صناديق أمانات وخدمات تجارية\n• خدمات إلكترونية عبر تطبيق عربي موبايل\n\nأكثر من ٧٨ فرعاً و١٥٠ صراف آلي منتشرة في جميع محافظات المملكة.",
    "stories": [
      {"id": "s_ab1", "image_url": "https://picsum.photos/seed/arabbank-story1/400/700", "duration": 5, "created_at": 1707900000},
      {"id": "s_ab2", "image_url": "https://picsum.photos/seed/arabbank-story2/400/700", "duration": 5, "created_at": 1707960000},
      {"id": "s_ab3", "image_url": "https://picsum.photos/seed/arabbank-story3/400/700", "duration": 5, "created_at": 1708020000}
    ],
    "branches": [
      {
        "id": "br_ab_hq",
        "name": "المقر الرئيسي — الشميساني",
        "address": "شارع المأمون، بناية البنك العربي، الشميساني",
        "phone": "+96265007000",
        "hours": "٠٨:٣٠ ص — ٠٣:٣٠ م (أحد—خميس)",
        "city": "عمّان",
        "neighborhood": "الشميساني",
        "lat": 31.9539,
        "lng": 35.9106
      },
      {
        "id": "br_ab_citymall",
        "name": "فرع City Mall — عبدون",
        "address": "City Mall، الطابق الأرضي، G-01، عبدون",
        "phone": "+96265922201",
        "hours": "١٠:٠٠ ص — ٠٣:٣٠ م (أحد—خميس)",
        "city": "عمّان",
        "neighborhood": "عبدون",
        "lat": 31.957,
        "lng": 35.882,
        "venue_id": "city-mall",
        "venue_name": "City Mall",
        "venue_floor": "الأرضي",
        "venue_unit": "G-01"
      },
      {
        "id": "br_ab_shmeisani_center",
        "name": "فرع مجمع الشميساني",
        "address": "مجمع الشميساني، الأرضي، G-06، الشميساني",
        "phone": "+96265681201",
        "hours": "٠٨:٣٠ ص — ٠٣:٣٠ م (أحد—خميس)",
        "city": "عمّان",
        "neighborhood": "الشميساني",
        "lat": 31.962,
        "lng": 35.897,
        "venue_id": "shmeisani-center",
        "venue_name": "مجمع الشميساني",
        "venue_floor": "الأرضي",
        "venue_unit": "G-06"
      },
      {
        "id": "br_ab_abdali_mall",
        "name": "فرع العبدلي مول",
        "address": "العبدلي مول، الأرضي، G-03",
        "phone": "+96265600301",
        "hours": "١٠:٠٠ ص — ٠٣:٣٠ م (أحد—خميس)",
        "city": "عمّان",
        "neighborhood": "العبدلي",
        "lat": 31.959,
        "lng": 35.894,
        "venue_id": "abdali-mall",
        "venue_name": "العبدلي مول",
        "venue_floor": "الأرضي",
        "venue_unit": "G-03"
      },
      {
        "id": "br_ab_mecca_mall",
        "name": "فرع مكة مول",
        "address": "مكة مول، الأرضي، G-08",
        "phone": "+96265527701",
        "hours": "١٠:٠٠ ص — ٠٣:٣٠ م (أحد—خميس)",
        "city": "عمّان",
        "neighborhood": "شارع مكة",
        "lat": 31.975,
        "lng": 35.861,
        "venue_id": "mecca-mall",
        "venue_name": "مكة مول",
        "venue_floor": "الأرضي",
        "venue_unit": "G-08"
      },
      {
        "id": "br_ab_taj_mall",
        "name": "فرع تاج مول",
        "address": "تاج مول، الأرضي، G-02",
        "phone": "+96265870201",
        "hours": "١٠:٠٠ ص — ٠٣:٣٠ م (أحد—خميس)",
        "city": "عمّان",
        "neighborhood": "عبدون الجنوبي",
        "lat": 31.949,
        "lng": 35.870,
        "venue_id": "taj-mall",
        "venue_name": "تاج مول",
        "venue_floor": "الأرضي",
        "venue_unit": "G-02"
      },
      {
        "id": "br_ab_gardens",
        "name": "فرع الجاردنز",
        "address": "شارع وصفي التل، مجمع الجاردنز، الطابق الأرضي",
        "phone": "+96265517700",
        "hours": "٠٨:٣٠ ص — ٠٣:٣٠ م (أحد—خميس)",
        "city": "عمّان",
        "neighborhood": "الجاردنز",
        "lat": 31.9631,
        "lng": 35.8880
      },
      {
        "id": "br_ab_sweifieh",
        "name": "فرع الصويفية",
        "address": "شارع علي نصوح الطاهر، مجمع برج العرب",
        "phone": "+96265856600",
        "hours": "٠٨:٣٠ ص — ٠٣:٣٠ م (أحد—خميس)",
        "city": "عمّان",
        "neighborhood": "الصويفية",
        "lat": 31.9555,
        "lng": 35.8630
      },
      {
        "id": "br_ab_abdali",
        "name": "فرع العبدلي — البوليفارد",
        "address": "مشروع العبدلي، البوليفارد، الطابق الأرضي",
        "phone": "+96265600300",
        "hours": "٠٨:٣٠ ص — ٠٣:٣٠ م (أحد—خميس)",
        "city": "عمّان",
        "neighborhood": "العبدلي",
        "lat": 31.9588,
        "lng": 35.8950
      },
      {
        "id": "br_ab_jabal_amman",
        "name": "فرع جبل عمّان — الدوار الأول",
        "address": "شارع الرينبو، جبل عمّان",
        "phone": "+96264622200",
        "hours": "٠٨:٣٠ ص — ٠٣:٣٠ م (أحد—خميس)",
        "city": "عمّان",
        "neighborhood": "جبل عمّان",
        "lat": 31.9530,
        "lng": 35.9200
      },
      {
        "id": "br_ab_mecca",
        "name": "فرع شارع مكة",
        "address": "شارع مكة المكرمة، بالقرب من دوار المدينة",
        "phone": "+96265527700",
        "hours": "٠٨:٣٠ ص — ٠٣:٣٠ م (أحد—خميس)",
        "city": "عمّان",
        "neighborhood": "شارع مكة",
        "lat": 31.9750,
        "lng": 35.8610
      },
      {
        "id": "br_ab_tabarbour",
        "name": "فرع طبربور",
        "address": "شارع الملك عبدالله، طبربور",
        "phone": "+96264200400",
        "hours": "٠٨:٣٠ ص — ٠٣:٣٠ م (أحد—خميس)",
        "city": "عمّان",
        "neighborhood": "طبربور",
        "lat": 31.9990,
        "lng": 35.9380
      },
      {
        "id": "br_ab_marj_hamam",
        "name": "فرع مرج الحمام",
        "address": "شارع الأمير حسن، مرج الحمام",
        "phone": "+96265711400",
        "hours": "٠٨:٣٠ ص — ٠٣:٣٠ م (أحد—خميس)",
        "city": "عمّان",
        "neighborhood": "مرج الحمام",
        "lat": 31.9270,
        "lng": 35.8290
      },
      {
        "id": "br_ab_dahiyat_rasheed",
        "name": "فرع ضاحية الرشيد",
        "address": "شارع الجامعة، ضاحية الرشيد",
        "phone": "+96265162200",
        "hours": "٠٨:٣٠ ص — ٠٣:٣٠ م (أحد—خميس)",
        "city": "عمّان",
        "neighborhood": "ضاحية الرشيد",
        "lat": 31.9870,
        "lng": 35.8650
      },
      {
        "id": "br_ab_khalda",
        "name": "فرع خلدا",
        "address": "شارع وصفي التل، خلدا",
        "phone": "+96265339900",
        "hours": "٠٨:٣٠ ص — ٠٣:٣٠ م (أحد—خميس)",
        "city": "عمّان",
        "neighborhood": "خلدا",
        "lat": 31.9680,
        "lng": 35.8510
      },
      {
        "id": "br_ab_jubeiha",
        "name": "فرع الجبيهة",
        "address": "شارع الجامعة الأردنية، الجبيهة",
        "phone": "+96265355500",
        "hours": "٠٨:٣٠ ص — ٠٣:٣٠ م (أحد—خميس)",
        "city": "عمّان",
        "neighborhood": "الجبيهة",
        "lat": 32.0210,
        "lng": 35.8710
      },
      {
        "id": "br_ab_airport",
        "name": "فرع مطار الملكة علياء",
        "address": "مطار الملكة علياء الدولي، صالة المغادرين",
        "phone": "+96264011100",
        "hours": "٢٤ ساعة",
        "city": "عمّان",
        "neighborhood": "المطار",
        "lat": 31.7226,
        "lng": 35.9932
      },
      {
        "id": "br_ab_zarqa",
        "name": "فرع الزرقاء — وسط البلد",
        "address": "شارع الملك حسين، وسط الزرقاء",
        "phone": "+96253822200",
        "hours": "٠٨:٣٠ ص — ٠٣:٣٠ م (أحد—خميس)",
        "city": "الزرقاء",
        "neighborhood": "وسط البلد",
        "lat": 32.0560,
        "lng": 36.0940
      },
      {
        "id": "br_ab_irbid",
        "name": "فرع إربد — شارع الجامعة",
        "address": "شارع الجامعة، بالقرب من جامعة اليرموك",
        "phone": "+96227100500",
        "hours": "٠٨:٣٠ ص — ٠٣:٣٠ م (أحد—خميس)",
        "city": "إربد",
        "neighborhood": "شارع الجامعة",
        "lat": 32.5568,
        "lng": 35.8469
      },
      {
        "id": "br_ab_aqaba",
        "name": "فرع العقبة — وسط المدينة",
        "address": "شارع الحمامات التونسية، العقبة",
        "phone": "+96232013500",
        "hours": "٠٨:٣٠ ص — ٠٣:٣٠ م (أحد—خميس)",
        "city": "العقبة",
        "neighborhood": "وسط المدينة",
        "lat": 29.5270,
        "lng": 35.0080
      },
      {
        "id": "br_ab_salt",
        "name": "فرع السلط",
        "address": "شارع الميدان، وسط السلط",
        "phone": "+96253550200",
        "hours": "٠٨:٣٠ ص — ٠٣:٣٠ م (أحد—خميس)",
        "city": "السلط",
        "neighborhood": "وسط البلد",
        "lat": 32.0392,
        "lng": 35.7272
      },
      {
        "id": "br_ab_madaba",
        "name": "فرع مادبا",
        "address": "شارع الملك طلال، مادبا",
        "phone": "+96253240100",
        "hours": "٠٨:٣٠ ص — ٠٣:٣٠ م (أحد—خميس)",
        "city": "مادبا",
        "neighborhood": "وسط البلد",
        "lat": 31.7160,
        "lng": 35.7940
      },
      {
        "id": "br_ab_karak",
        "name": "فرع الكرك",
        "address": "شارع الاستقلال، الكرك",
        "phone": "+96232351200",
        "hours": "٠٨:٣٠ ص — ٠٣:٣٠ م (أحد—خميس)",
        "city": "الكرك",
        "neighborhood": "وسط البلد",
        "lat": 31.1850,
        "lng": 35.7044
      },
      {
        "id": "br_ab_jerash",
        "name": "فرع جرش",
        "address": "شارع الأمير حسن، جرش",
        "phone": "+96226350100",
        "hours": "٠٨:٣٠ ص — ٠٣:٣٠ م (أحد—خميس)",
        "city": "جرش",
        "neighborhood": "وسط البلد",
        "lat": 32.2747,
        "lng": 35.8990
      }
    ]
  }
}
